,Адрес,Цена,Тип предложения,Площадь участка,Коммуникации,Правоустанавливающие документы,Возможность ипотеки,Возможность обмена,Широта,Долгота,Местоположение,Разное,Возможность рассрочки,Состояние,Кол-во этажей,Интернет,Канализация,Питьевая вода,Электричество,Газ,Мебель,Телефон,Санузел,Пол
0,"Бишкек, Ак-Орго ж/м, Омур, (Кипкалова) 20/Муромская",$ 37 000,от собственника,4.11 соток,"свет,                                             газ,                                             вода,                                             канализация","договор купли-продажи,                                             красная книга",есть,обмен на авто,42.8388,74.5233,,,,,,,,,,,,,,
1,"с. Кок-Джар, Вишневая 26",$ 30 000,от собственника,4 соток,"вода,                                             канализация","договор купли-продажи,                                             технический паспорт,                                             красная книга",нет,обмен не предлагать,42.7882,74.6647,в предгорьях,"хозпостройки,                                             огорожен,                                             удобно под коммерцию,                                             удобный въезд,                                             все документы",нет,,,,,,,,,,,
2,Кант,$ 980 000,от собственника,140 соток,"свет,                                             вода",красная книга,,,42.8858,74.817,,,,,,,,,,,,,,
3,"с. Военно-Антоновка, Октябрьская/Проектируемая",$ 12 000,от собственника,4 соток,свет,"договор купли-продажи,                                             технический паспорт,                                             красная книга",нет,,42.8582,74.4477,в городе,"ровный,                                             все документы",нет,,,,,,,,,,,
4,с. Кош-Коль,$ 65 000,от собственника,100 соток,,красная книга,,рассмотрю варианты,42.5419,76.6252,,,,,,,,,,,,,,
5,"Бишкек, 1-линия -",$ 28 000,от собственника,6 соток,свет,"договор купли-продажи,                                             технический паспорт,                                             красная книга",,,42.827,74.488,в городе,"удобный въезд,                                             все документы",,,,,,,,,,,,
6,"с. Туз,  ул. А. Дербишева 26",$ 18 000,от собственника,13 соток,,,,,42.7898,74.8535,,"сад,                                             огорожен,                                             госакт,                                             ровный,                                             все документы",есть,,,,,,,,,,,
7,Чолпон-Ата,$ 12 000,от собственника,10 соток,вода,зеленая книга,,,42.6459,77.052,,"ровный,                                             все документы,                                             удобный въезд",,,,,,,,,,,,
8,"Бишкек, Кузнечная крепость, Жибек-Жолу 367",$ 190 000,от собственника,5 соток,свет,"договор купли-продажи,                                             красная книга",нет,,42.8855,74.6179,в городе,"удобный въезд,                                             все документы,                                             огорожен,                                             госакт",нет,,,,,,,,,,,
9,"Бишкек, Таатан",$ 320 000,от агента,19 соток,"свет,                                             газ,                                             вода,                                             канализация",,,,42.8803,74.6523,в городе,"хозпостройки,                                             огорожен,                                             госакт,                                             дом,                                             ровный,                                             удобный въезд,                                             все документы",,,,,,,,,,,,
10,"с. Новопавловка, Советская 195 в/Холхозная",$ 27 000,от собственника,3 соток,,красная книга,,,42.8722,74.4769,в городе,,,,,,,,,,,,,
11,"с. Ананьево, Ленина/Советская",$ 2 100 000,от агента,1000 соток,"свет,                                             вода","договор купли-продажи,                                             красная книга",,рассмотрю варианты,42.7164,77.6903,,"фундамент,                                             сад,                                             хозпостройки,                                             госакт,                                             удобно под коммерцию,                                             удобный въезд,                                             все документы",нет,,,,,,,,,,,
12,"Бишкек, Джальская больница, Ахунбаева/Бакаева",$ 159 000,от агента,4 соток,"свет,                                             газ,                                             интернет,                                             канализация","договор купли-продажи,                                             красная книга",есть,рассмотрю варианты,42.8441,74.5789,,"сад,                                             дом,                                             все документы",нет,,,,,,,,,,,
13,с. Октябрьское (Аламудунский р-н),$ 89 000,от собственника,66 соток,,"договор купли-продажи,                                             технический паспорт,                                             красная книга",,,43.116,74.4974,,,,,,,,,,,,,,
14,"с. Токбай, Исмаила",$ 67 000,от агента,20 соток,"свет,                                             вода",,есть,рассмотрю варианты,42.8013,74.4088,в пригороде,"сад,                                             хозпостройки,                                             огорожен,                                             госакт,                                             удобно под коммерцию,                                             дом,                                             ровный,                                             удобный въезд",нет,,,,,,,,,,,
15,"с. Беш-Кунгей, Район Военного Госпиталя,  СК ""Медик""/Дарыгерлер",$ 96 239,от агента,13 соток,"свет,                                             вода","технический паспорт,                                             красная книга",нет,обмен не предлагать,42.7809,74.6462,в дачном массиве,"сад,                                             огорожен,                                             госакт,                                             дом,                                             удобный въезд",нет,,,,,,,,,,,
16,"с. Арашан, с.Арашан/кафе ""Роял Фиш""",$ 58 780,от агента,5 соток,"свет,                                             отопление",,нет,обмен не предлагать,42.7275,74.6525,в пригороде,"сад,                                             хозпостройки,                                             огорожен,                                             госакт,                                             дом,                                             удобный въезд,                                             все документы",нет,,,,,,,,,,,
17,"Бишкек, Мед. академия, Советская/Ахунбаева",$ 1 600 000,от агента,26 соток,"свет,                                             газ,                                             интернет,                                             отопление,                                             вода,                                             телефон,                                             канализация","технический паспорт,                                             красная книга",,,42.8437,74.6069,,"фундамент,                                             сад,                                             хозпостройки,                                             огорожен,                                             времянка,                                             удобный въезд,                                             все документы",,,,,,,,,,,,
18,"Бишкек, Кара Дарыя, горького",$ 1 550 000,от агента,39 соток,,"технический паспорт,                                             красная книга",,рассмотрю варианты,42.8562,74.6284,в городе,"госакт,                                             удобный въезд,                                             все документы",,,,,,,,,,,,
19,с. Военно-Антоновка,$ 26 000,от собственника,6 соток,"свет,                                             вода","договор купли-продажи,                                             красная книга",,,42.8723,74.4441,вдоль трассы,времянка,,,,,,,,,,,,
20,"Бишкек, Мед. академия",$ 350 000,от агента,4 соток,"свет,                                             газ,                                             интернет,                                             отопление,                                             вода,                                             канализация","технический паспорт,                                             красная книга",,,42.8403,74.6083,,"дом,                                             ровный,                                             удобный въезд,                                             все документы",,,,,,,,,,,,
21,"Бишкек, Западный автовокзал, Жибек-Жолу/Лесхозная",$ 100 000,от агента,8 соток,"свет,                                             газ,                                             интернет,                                             отопление,                                             вода,                                             канализация","технический паспорт,                                             красная книга",,,42.8827,74.5621,в городе,"хозпостройки,                                             огорожен,                                             времянка,                                             удобный въезд,                                             все документы",,,,,,,,,,,,
22,с. Кок-Джар,$ 52 000,от собственника,4.33 соток,,"договор купли-продажи,                                             технический паспорт,                                             красная книга",,обмен на авто,42.8109,74.649,в дачном массиве,,,,,,,,,,,,,
23,"Бишкек, Кудайберген, Профсоюзная/Садыгалиева",$ 55 000,от агента,4 соток,"свет,                                             газ,                                             вода,                                             канализация","договор купли-продажи,                                             красная книга",,,42.8854,74.5179,в городе,"госакт,                                             удобно под коммерцию,                                             ровный,                                             удобный въезд,                                             все документы",,,,,,,,,,,,
24,"Бишкек, Рухий Мурас ж/м",$ 140 000,от собственника,16 соток,"вода,                                             свет",красная книга,есть,рассмотрю варианты,42.8451,74.7083,,,есть,,,,,,,,,,,
25,"Бишкек, Кудайберген, Профсоюзная/Садыгалиева",$ 55 000,от агента,4 соток,"свет,                                             газ,                                             вода,                                             канализация","договор купли-продажи,                                             красная книга",,,42.8847,74.5178,в городе,"госакт,                                             удобно под коммерцию,                                             ровный,                                             удобный въезд,                                             все документы",,,,,,,,,,,,
26,"с. им. С. Чокморова, Эдиге",$ 27 000,от агента,7 соток,,,,,42.7541,74.6035,в пригороде,,,,,,,,,,,,,
27,"Бишкек, Кара Дарыя",$ 1 550 000,от агента,33 соток,"свет,                                             газ,                                             отопление,                                             вода,                                             канализация",красная книга,,,42.8561,74.6284,,"удобно под коммерцию,                                             все документы",,,,,,,,,,,,
28,"с. Аламудун, набережная 115",$ 125 000,от агента,15 соток,"свет,                                             газ,                                             вода,                                             канализация","договор купли-продажи,                                             красная книга",,,42.9166,74.6277,,,,,,,,,,,,,,
29,"с. Маловодное (Московский р-н), байтик",$ 125 000,от агента,18 соток,,,,,42.9818,74.2144,,,,,,,,,,,,,,
30,"Бишкек, Рухий Мурас ж/м",$ 140 000,от агента,16 соток,,,,,42.8517,74.697,,,,,,,,,,,,,,
31,"Бишкек, Кара-Жыгач ж/м, анкара",$ 400 000,от агента,20 соток,,,,,42.8554,74.6568,,,,,,,,,,,,,,
32,"Бишкек, Рухий Мурас ж/м",$ 140 000,от агента,16 соток,,,,,42.8535,74.6991,,,,,,,,,,,,,,
33,"Бишкек, Кок-Жар ж/м, ахунбаева/алматинка",$ 130 000,от агента,4.5 соток,,,,,42.838,74.6382,,,,,,,,,,,,,,
34,"Бишкек, Ала-Арча ж/м",$ 77 000,от агента,16 соток,,,,,42.808,74.5995,,,,,,,,,,,,,,
35,"с. Арашан, Достук 101",$ 180 000,от агента,20 соток,"свет,                                             интернет,                                             вода","договор купли-продажи,                                             технический паспорт,                                             красная книга",,рассмотрю варианты,42.7192,74.6555,,"сад,                                             огорожен,                                             госакт,                                             дом,                                             ровный,                                             удобный въезд,                                             все документы",,,,,,,,,,,,
36,"Бишкек, Бакай-Ата ж/м, Заводская 34",$ 90 000,от агента,50 соток,"свет,                                             вода",,,рассмотрю варианты,42.8974,74.6423,,"госакт,                                             дом,                                             времянка,                                             все документы",,,,,,,,,,,,
37,"Бишкек, Мед. академия",$ 1 600 000,от агента,26 соток,"свет,                                             газ,                                             отопление,                                             вода,                                             канализация","технический паспорт,                                             красная книга",,обмен не предлагать,42.8438,74.6076,,"хозпостройки,                                             удобно под коммерцию,                                             дом,                                             все документы",нет,,,,,,,,,,,
38,с. Лесное (Сокулукский р-н),$ 7 500,от агента,4 соток,,,,,42.9767,74.4136,,"ровный,                                             все документы",,,,,,,,,,,,
39,с. Сретенка,$ 78 500,от агента,280 соток,"свет,                                             вода",красная книга,,,42.9297,74.1334,,,,,,,,,,,,,,
40,"Бишкек, с. Чон-Арык",$ 250 000,от агента,10 соток,"свет,                                             газ,                                             вода,                                             канализация","договор купли-продажи,                                             красная книга",,,42.8046,74.5703,вдоль трассы,"огорожен,                                             удобно под коммерцию,                                             дом,                                             ровный,                                             удобный въезд,                                             все документы",,,,,,,,,,,,
41,"Бишкек, БГУ, юдахина",$ 60 000,от агента,3 соток,"свет,                                             газ,                                             отопление,                                             вода,                                             канализация","договор купли-продажи,                                             технический паспорт,                                             красная книга",,,42.8485,74.5789,в городе,"огорожен,                                             дом,                                             ровный,                                             все документы",,,,,,,,,,,,
42,с. Бостери,$ 34 000,от собственника,20 соток,"свет,                                             вода",,нет,обмен на авто,42.6553,77.2002,,,нет,под самоотделку (псо),,,,,,,,,,
43,"Бишкек, Арча-Бешик ж/м, камбар ата",$ 46 500,от агента,4 соток,"свет,                                             газ,                                             вода,                                             канализация","договор купли-продажи,                                             красная книга",,,42.833,74.5399,,"ровный,                                             все документы",,,,,,,,,,,,
44,с. Заречное,$ 15 000,от агента,15 соток,"свет,                                             вода",зеленая книга,,,42.756,74.5718,,ровный,,,,,,,,,,,,
45,"Бишкек, Мед. академия",$ 350 000,от агента,4 соток,"свет,                                             газ,                                             интернет,                                             отопление,                                             канализация","договор купли-продажи,                                             технический паспорт,                                             красная книга",,,42.8439,74.6085,,,,,,,,,,,,,,
46,с. Арашан,$ 85 000,от агента,16 соток,"свет,                                             вода","договор купли-продажи,                                             красная книга",,,42.7225,74.6493,,все документы,,,,,,,,,,,,
47,Бишкек,$ 1 300 000,от агента,50 соток,,,,,42.8638,74.6206,,,,,,,,,,,,,,
48,Бишкек,$ 1 300 000,от агента,50 соток,,"договор купли-продажи,                                             технический паспорт,                                             красная книга",,,42.8629,74.6298,в городе,,,,,,,,,,,,,
49,с. Кок-Джар,$ 350 000,от агента,25 соток,,красная книга,,,42.822,74.644,,,,,,,,,,,,,,
50,с. Кок-Джар,$ 140 000,от агента,10 соток,"свет,                                             газ,                                             вода",красная книга,,,42.8232,74.6445,,ровный,,,,,,,,,,,,
51,с. Заречное,$ 14 000,от агента,15 соток,,,,,42.7592,74.5706,,,,,,,,,,,,,,
52,"Бишкек, Кок-Жар ж/м, Достоевская",$ 155 000,от агента,7 соток,"газ,                                             канализация",,,,42.8539,74.6499,,,,,,,,,,,,,,
53,"Бишкек, Кара Дарыя",$ 105 000,от агента,4.4 соток,,,,,42.8511,74.6282,,,,,,,,,,,,,,
54,"Бишкек, Рухий Мурас ж/м",$ 140 000,от агента,16 соток,"свет,                                             вода",красная книга,,,42.8521,74.7032,,"сад,                                             огорожен,                                             госакт,                                             ровный,                                             все документы",,,,,,,,,,,,
55,"Бишкек, 6 м-н",$ 320 000,от агента,3.3 соток,,,,,42.8256,74.6236,,,,,,,,,,,,,,
56,"Бишкек, Арча-Бешик ж/м,  ул.Сандык-Тор 32/ул.Шералиева",$ 130 000,от собственника,8 соток,"свет,                                             газ,                                             интернет,                                             вода,                                             телефон,                                             канализация","договор купли-продажи,                                             технический паспорт,                                             красная книга",есть,рассмотрю варианты,42.8357,74.5548,в городе,"фундамент,                                             сад,                                             хозпостройки,                                             огорожен,                                             госакт,                                             времянка,                                             ровный,                                             удобный въезд,                                             все документы",,,,,,,,,,,,
57,с. Октябрьское (Аламудунский р-н),$ 7 000,от агента,4 соток,,,,,43.0914,74.4941,,,,,,,,,,,,,,
58,"Бишкек, Алматинка - Магистраль",$ 120 000,от агента,8 соток,"свет,                                             газ,                                             вода","договор купли-продажи,                                             красная книга",,,42.8121,74.6443,,"огорожен,                                             ровный,                                             удобный въезд",,,,,,,,,,,,
59,"Бишкек, Душанбинка",$ 159 000,от агента,5.4 соток,"свет,                                             газ,                                             интернет,                                             отопление,                                             вода,                                             телефон,                                             канализация","договор купли-продажи,                                             технический паспорт,                                             акт ввода в эксплуатацию,                                             красная книга",,,42.8528,74.5917,,"хозпостройки,                                             огорожен,                                             госакт,                                             дом,                                             времянка,                                             ровный,                                             удобный въезд,                                             все документы",,,,,,,,,,,,
60,"Бишкек, Киргизия 1 ж/м",$ 94 000,от агента,5 соток,"свет,                                             газ,                                             вода,                                             канализация",,нет,,42.8133,74.5822,,,нет,,,,,,,,,,,
61,"Бишкек, Ак-Орго ж/м",$ 68 000,от агента,5 соток,"свет,                                             газ,                                             вода,                                             канализация","красная книга,                                             акт ввода в эксплуатацию,                                             технический паспорт,                                             договор купли-продажи",,,42.8433,74.5158,,"сад,                                             хозпостройки,                                             огорожен,                                             госакт,                                             дом,                                             времянка,                                             ровный,                                             удобный въезд,                                             все документы",,,,,,,,,,,,
62,с. Новопокровка,$ 29 000,от агента,6.15 соток,"свет,                                             вода","договор купли-продажи,                                             красная книга",,рассмотрю варианты,42.8752,74.778,вдоль трассы,"госакт,                                             удобно под коммерцию,                                             удобный въезд,                                             все документы",,,,,,,,,,,,
63,"Бишкек, Арча-Бешик ж/м",$ 230 000,от агента,9.5 соток,"свет,                                             газ,                                             вода",красная книга,,,42.8436,74.5441,в городе,"удобно под коммерцию,                                             удобный въезд,                                             все документы",,,,,,,,,,,,
64,с. Байтик,$ 60 000,от агента,50 соток,"свет,                                             вода,                                             канализация",,,рассмотрю варианты,42.7516,74.5537,,"огорожен,                                             госакт,                                             удобно под коммерцию,                                             ровный,                                             удобный въезд,                                             все документы",,,,,,,,,,,,
65,с. Беш-Кунгей,$ 70 000,от агента,10 соток,"свет,                                             вода",,,,42.7738,74.6534,,,,,,,,,,,,,,
66,"Бишкек, Мед. академия",$ 350 000,от агента,4 соток,"свет,                                             газ,                                             отопление,                                             вода,                                             канализация","договор купли-продажи,                                             красная книга",,,42.8448,74.6092,вдоль трассы,"огорожен,                                             удобно под коммерцию",,,,,,,,,,,,
67,"с. Малиновка, Малиновка $/Воронцовка",$ 85 000,от собственника,14 соток,,красная книга,,рассмотрю варианты,42.695,74.5353,вдоль трассы,,,,,,,,,,,,,
68,"с. Новопокровка, Новорокравка @/Новопокровка",$ 13 500,от собственника,3.5 соток,,красная книга,,обмен не предлагать,42.8778,74.7111,вдоль трассы,,,,,,,,,,,,,
69,"Бишкек, с. Орто-Сай, Иманалиева",$ 240 000,от агента,10 соток,"свет,                                             газ,                                             вода","договор купли-продажи,                                             красная книга",,,42.8036,74.5911,,"огорожен,                                             удобный въезд,                                             все документы",,,,,,,,,,,,
70,с. Байтик,$ 36 500,от агента,6 соток,,,,,42.7315,74.5454,,,,,,,,,,,,,,
71,"Бишкек, Горького - Панфилова",$ 280 000,от агента,5 соток,"свет,                                             газ,                                             вода,                                             канализация",красная книга,,,42.8612,74.5984,в городе,"хозпостройки,                                             огорожен,                                             дом,                                             все документы",,,,,,,,,,,,
72,"Бишкек, Таш Рабат, горький",$ 1 550 000,от агента,39 соток,,,,,42.8567,74.6189,,,,,,,,,,,,,,
73,"Бишкек, Кок-Жар ж/м",$ 165 000,от агента,6 соток,,,,,42.8457,74.6402,,,,,,,,,,,,,,
74,"с. Кой-Таш, алматинка",$ 78 500,от агента,8 соток,"свет,                                             вода","технический паспорт,                                             красная книга",,,42.7093,74.6653,,"сад,                                             дом,                                             все документы",,,,,,,,,,,,
75,"Бишкек, Кара Дарыя",$ 105 000,от агента,4.4 соток,,,,,42.8513,74.6283,,,,,,,,,,,,,,
76,Бишкек,$ 1 550 000,от агента,39 соток,,,,,42.8571,74.6276,,,,,,,,,,,,,,
77,с. Байтик,$ 150 000,от собственника,18.4 соток,"свет,                                             отопление,                                             вода","договор купли-продажи,                                             красная книга",,обмен не предлагать,42.7397,74.5597,в дачном массиве,"фундамент,                                             сад,                                             хозпостройки,                                             огорожен,                                             времянка,                                             ровный,                                             удобный въезд,                                             все документы",,,,,,,,,,,,
78,"Бишкек, 6 м-н 2/3",$ 50 000,от агента,1 соток,"свет,                                             газ,                                             вода,                                             отопление,                                             канализация","договор купли-продажи,                                             технический паспорт,                                             красная книга",,с доплатой покупателя,42.8264,74.6256,в городе,"удобно под коммерцию,                                             все документы",,,,,,,,,,,,
79,"Бишкек, Магистраль, малдыбаева",$ 350 000,от агента,7 соток,"свет,                                             газ,                                             отопление,                                             вода,                                             канализация","договор купли-продажи,                                             технический паспорт,                                             красная книга",нет,,42.8295,74.5958,вдоль трассы,"удобно под коммерцию,                                             ровный,                                             все документы",нет,,,,,,,,,,,
80,"с. Военно-Антоновка, Фрунзе",$ 245 000,от агента,24 соток,,,,,42.8728,74.4488,,,,,,,,,,,,,,
81,"Бишкек, Магистраль",$ 350 000,от агента,7 соток,,,,,42.8296,74.596,,,,,,,,,,,,,,
82,"Бишкек, Восток-5 м-н",$ 81 000,от агента,6 соток,,,,,42.8709,74.6285,,,,,,,,,,,,,,
83,"Бишкек, Ак-Орго ж/м",$ 55 000,от агента,5 соток,,красная книга,,,42.8462,74.5181,,,,,,,,,,,,,,
84,"с. Арашан, Тепловик",$ 19 500,от агента,4 соток,"свет,                                             вода",,,,42.7322,74.6495,в дачном массиве,,,,,,,,,,,,,
85,с. Байтик,$ 250 000,от агента,130 соток,,,,,42.7372,74.5466,,,,,,,,,,,,,,
86,"Бишкек, Кузнечная крепость",$ 85 000,от агента,4 соток,,,,,42.8868,74.6176,,,,,,,,,,,,,,
87,с. Кара-Талаа,$ 55 000,от агента,2.5 соток,,"договор купли-продажи,                                             технический паспорт,                                             красная книга",,,42.3157,76.4027,,,,,,,,,,,,,,
88,с. Кара-Талаа,$ 50 000,от агента,250 соток,свет,"договор купли-продажи,                                             красная книга",,рассмотрю варианты,42.2949,76.5201,,,,,,,,,,,,,,
89,"с. Арашан, Тепловик",$ 19 500,от агента,4 соток,"свет,                                             вода",,,,42.7407,74.6468,,,,,,,,,,,,,,
90,с. Садовое (Аламудунский р-н),$ 169 000,от агента,1000 соток,,,,,42.9414,74.6597,,,,,,,,,,,,,,
91,"Бишкек, Советская - Скрябина",$ 185 000,от агента,5 соток,,,,,42.8532,74.6145,,,,,,,,,,,,,,
92,"Бишкек, Ак-Орго ж/м",$ 78 000,от агента,10 соток,,красная книга,,,42.8466,74.5191,,,,,,,,,,,,,,
93,"Бишкек, Кок-Жар ж/м, 7 апреля",$ 155 000,от агента,4 соток,,,,,42.8371,74.6374,,,,,,,,,,,,,,
94,с. Дача СУ,$ 2 700 000,от агента,2500 соток,,,,,43.0628,74.4288,,,,,,,,,,,,,,
95,"Бишкек, Верхний Джал м-н",$ 162 000,от агента,7 соток,,,,,42.8337,74.5664,,,,,,,,,,,,,,
96,"Бишкек, Ак-Орго ж/м, гагарина/кырк кыз",$ 115 000,от агента,5 соток,,,,,42.8521,74.5258,,,,,,,,,,,,,,
97,Бишкек,$ 80 000,от агента,10 соток,,,,,42.7358,74.5405,,,,,,,,,,,,,,
98,"Бишкек, Бакай-Ата ж/м",$ 24 500,от агента,6 соток,,,,,42.8965,74.6527,,,,,,,,,,,,,,
99,Бишкек,$ 3 300 000,от агента,800 соток,"свет,                                             газ,                                             интернет,                                             отопление,                                             вода,                                             телефон,                                             канализация",зеленая книга,,,42.9489,74.6236,,,,,,,,,,,,,,
100,"Бишкек, Кок-Жар ж/м, алматинка/ахунбаева",$ 150 000,от агента,4.5 соток,,,,,42.8344,74.6396,,,,,,,,,,,,,,
101,"Бишкек, объездная",$ 3 200 000,от агента,1200 соток,"свет,                                             интернет,                                             вода,                                             телефон,                                             канализация",,,,42.9449,74.6339,,"огорожен,                                             удобный въезд",,,,,,,,,,,,
102,с. Дача СУ,$ 2 800 000,от агента,25000 соток,"свет,                                             газ,                                             вода",,,,43.0599,74.4324,,,,,,,,,,,,,,
103,"Бишкек, Киргизия 1 ж/м",$ 77 000,от агента,16 соток,,,,,42.8162,74.579,,,,,,,,,,,,,,
104,с. Кашка-Суу,$ 38 000,от агента,48 соток,"свет,                                             вода",,,,42.7094,74.5259,,сад,,,,,,,,,,,,
105,"Бишкек, Киргизия 1 ж/м",$ 94 000,от агента,5 соток,"свет,                                             газ,                                             интернет,                                             отопление,                                             вода,                                             телефон,                                             канализация",,,,42.8182,74.5811,,,,,,,,,,,,,,
106,"Бишкек, АУЦА",$ 4 950 000,от агента,215 соток,"свет,                                             газ,                                             интернет,                                             отопление,                                             вода,                                             телефон,                                             канализация",,,,42.8076,74.6138,,,,,,,,,,,,,,
107,"Бишкек, Рухий Мурас ж/м",$ 140 000,от агента,16 соток,,,,,42.8545,74.6975,,,,,,,,,,,,,,
108,"Бишкек, Ынтымак ж/м",$ 190 000,от агента,8 соток,"свет,                                             газ,                                             интернет,                                             отопление,                                             вода,                                             телефон,                                             канализация","договор купли-продажи,                                             технический паспорт,                                             красная книга",нет,рассмотрю варианты,42.8145,74.5729,в городе,"фундамент,                                             сад,                                             дом",нет,,,,,,,,,,,
109,"Бишкек, Ынтымак ж/м",$ 160 000,от агента,8 соток,"свет,                                             газ,                                             интернет,                                             отопление,                                             вода,                                             телефон,                                             канализация",,нет,,42.8114,74.5704,в городе,"сад,                                             хозпостройки,                                             огорожен,                                             дом",нет,,,,,,,,,,,
110,"Бишкек, Киргизия 1 ж/м",$ 420 000,от агента,13 соток,,,,,42.8205,74.5828,,,,,,,,,,,,,,
111,"Бишкек, Кудайберген",$ 55 000,от агента,4 соток,,"красная книга,                                             технический паспорт",,,42.8852,74.5191,в городе,,,,,,,,,,,,,
112,с. Беш-Кунгей,$ 33 000,от агента,6 соток,,красная книга,,,42.7647,74.6417,,,,,,,,,,,,,,
113,с. им. С. Чокморова,$ 27 000,от агента,7 соток,,,,,42.7542,74.603,,,,,,,,,,,,,,
114,"Бишкек, Токольдош ж/м",$ 81 000,от агента,6 соток,"свет,                                             вода,                                             газ,                                             канализация",,,,42.8651,74.6419,,,,,,,,,,,,,,
115,Бишкек,$ 10 500,от агента,215 соток,,,,,42.8506,74.6542,вдоль трассы,,,,,,,,,,,,,
116,с. Таш-Добо,$ 100 000,от агента,17 соток,,,,с доплатой покупателя,42.7257,74.571,в городе,,,,,,,,,,,,,
117,"Бишкек, Мед. академия, Советская/Ахунбаева",$ 350 000,от агента,4 соток,"свет,                                             газ,                                             интернет,                                             отопление,                                             вода,                                             канализация","технический паспорт,                                             красная книга",есть,с доплатой покупателя,42.8444,74.6088,в городе,"огорожен,                                             госакт,                                             удобно под коммерцию,                                             дом,                                             ровный,                                             удобный въезд,                                             все документы",нет,,,,,,,,,,,
118,с. Кой-Таш,$ 78 500,от агента,8 соток,"свет,                                             интернет,                                             отопление,                                             вода,                                             канализация","договор купли-продажи,                                             технический паспорт,                                             красная книга",нет,обмен не предлагать,42.7265,74.6616,в городе,"хозпостройки,                                             огорожен,                                             госакт,                                             удобно под коммерцию,                                             удобный въезд,                                             все документы",нет,,,,,,,,,,,
119,"Бишкек, Горького/Кара Дарыя",$ 1 550 000,от агента,39 соток,"свет,                                             газ,                                             отопление,                                             вода,                                             канализация","договор купли-продажи,                                             технический паспорт,                                             красная книга",есть,обмен не предлагать,42.8563,74.6278,в городе,"хозпостройки,                                             огорожен,                                             госакт,                                             удобно под коммерцию,                                             удобный въезд,                                             все документы",нет,,,,,,,,,,,
120,с. Байтик,$ 350 000,от агента,133 соток,,"технический паспорт,                                             красная книга",,,42.7438,74.5497,,,,,,,,,,,,,,
121,"Джалал-Абад, 2  Жаны Арал",$ 36 000,от собственника,6 соток,"свет,                                             вода",,,,40.9598,73.0043,в городе,,,,,,,,,,,,,
122,"Бишкек, Арча-Бешик ж/м",$ 115 000,от агента,5 соток,"свет,                                             канализация",,,,42.8378,74.5356,,,,,,,,,,,,,,
123,"Бишкек, Матросова, ахунбаева/карла маркса",$ 460 000,от агента,4.5 соток,,красная книга,,,42.8449,74.6202,,,,,,,,,,,,,,
124,"Бишкек, БГУ",$ 62 000,от агента,3 соток,,,,,42.8485,74.5789,,,,,,,,,,,,,,
125,Бишкек,$ 1 800 000,от агента,155 соток,,,,,42.8648,74.526,,,,,,,,,,,,,,
126,"Бишкек, Кок-Жар ж/м",$ 28 000,от агента,2 соток,,,,,42.8355,74.6481,,,,,,,,,,,,,,
127,Бишкек,$ 37 500,от агента,4 соток,,,,,42.8247,74.5046,,,,,,,,,,,,,,
128,"Бишкек, Мед. академия",$ 351 000,от агента,4 соток,,"технический паспорт,                                             красная книга",есть,обмен не предлагать,42.8421,74.6085,,,нет,,,,,,,,,,,
129,с. Маевка,$ 4 385 000,от агента,877 соток,,,,рассмотрю варианты,42.9214,74.5607,,,,,,,,,,,,,,
130,"Бишкек, Ак-Орго ж/м, алтын казык 1/ахунбаева",$ 55 000,от агента,10 соток,,"технический паспорт,                                             красная книга,                                             зеленая книга",,,42.8465,74.5181,,"дом,                                             все документы",,,,,,,,,,,,
131,"Бишкек, Рухий Мурас ж/м",$ 140 000,от агента,16 соток,,,,,42.8531,74.7004,,,,,,,,,,,,,,
132,"Бишкек, Кара-Жыгач ж/м",$ 135 000,от агента,6 соток,,,,,42.8595,74.6592,,,,,,,,,,,,,,
133,Лебединовка,$ 900 000,от агента,146 соток,,,,,42.8937,74.685,,,,,,,,,,,,,,
134,с. Новопокровка,$ 450 000,от агента,45 соток,,,,,42.8688,74.7427,,,,,,,,,,,,,,
135,"Бишкек, Ынтымак ж/м",$ 550 000,от агента,25 соток,,,,,42.8133,74.5737,,,,,,,,,,,,,,
136,"Бишкек, Душанбинка",$ 43 000,от агента,14.8 соток,,,,рассмотрю варианты,42.8507,74.5922,вдоль трассы,,,,,,,,,,,,,
137,"Бишкек, Кок-Жар ж/м, кой таш",$ 78 500,от агента,8 соток,,,,,42.835,74.6395,,,,,,,,,,,,,,
138,"Бишкек, Ак-Ордо ж/м, Э. Иманалиева/Эркин-Тоо",$ 39 000,от агента,5 соток,вода,,,,42.8529,74.4803,в пригороде,"времянка,                                             удобный въезд,                                             все документы",,,,,,,,,,,,
139,"Сокулук, Чат Куль",$ 105 000,от агента,35 соток,"свет,                                             интернет,                                             отопление,                                             вода,                                             телефон,                                             канализация","технический паспорт,                                             красная книга",есть,рассмотрю варианты,42.8561,74.2715,,"фундамент,                                             хозпостройки,                                             огорожен,                                             удобно под коммерцию,                                             дом,                                             времянка,                                             удобный въезд,                                             все документы",,,,,,,,,,,,
140,Бишкек,$ 1 550 000,от агента,39 соток,,,,,42.8554,74.6314,,,,,,,,,,,,,,
141,с. Байтик,$ 252 000,от агента,1300 соток,,"технический паспорт,                                             красная книга",,,42.7365,74.5509,,времянка,,,,,,,,,,,,
142,с. Садовое (Московский р-н),$ 78 500,от агента,280 соток,,красная книга,нет,обмен не предлагать,42.853,74.1964,,,нет,,,,,,,,,,,
143,"Бишкек, Ак-Орго ж/м",$ 78 000,от агента,10 соток,,"технический паспорт,                                             красная книга,                                             зеленая книга",,,42.8466,74.5181,,дом,,,,,,,,,,,,
144,"Бишкек, Ак-Орго ж/м, Ахунбаева/Алыкулова",$ 120 000,от агента,4 соток,,,,,42.8452,74.5139,,,,,,,,,,,,,,
145,"Бишкек, Гагарина, ак чолмок 49\3",$ 58 000,от агента,5 соток,,,,,42.8498,74.5318,,,,,,,,,,,,,,
146,с. Кок-Джар,$ 95 000,от агента,8 соток,,,,,42.7942,74.6564,,,,,,,,,,,,,,
147,"с. Шалта, с. Шалта",$ 42 700,от агента,17.8 соток,"свет,                                             вода","договор купли-продажи,                                             технический паспорт",нет,обмен не предлагать,42.8387,74.3304,в пригороде,"сад,                                             огорожен,                                             госакт,                                             ровный,                                             удобный въезд,                                             все документы",нет,,,,,,,,,,,
148,"с. Кок-Джар, 7 Апреля/Кольбаева",$ 158 000,от агента,10 соток,"свет,                                             вода","договор купли-продажи,                                             технический паспорт",нет,рассмотрю варианты,42.8192,74.644,вдоль трассы,"огорожен,                                             удобно под коммерцию,                                             времянка,                                             ровный,                                             удобный въезд,                                             все документы",нет,,,,,,,,,,,
149,"Бишкек, Арча-Бешик ж/м",$ 230 000,от агента,8 соток,,,,,42.8262,74.5706,,,,,,,,,,,,,,
150,"с. Кой-Таш, 12 каминов",$ 130 000,от агента,23 соток,,,,,42.71,74.6661,,,,,,,,,,,,,,
151,Бишкек,$ 1 700 000,от агента,120 соток,,,,,42.863,74.6194,,,,,,,,,,,,,,
152,"Бишкек, Киргизия 1 ж/м",$ 575 000,от агента,23 соток,,,,,42.8163,74.5809,,,,,,,,,,,,,,
153,"Бишкек, Джальская больница",$ 100 000,от агента,4.2 соток,"свет,                                             газ,                                             вода,                                             канализация","договор купли-продажи,                                             технический паспорт,                                             красная книга",,,42.846,74.5723,в городе,"хозпостройки,                                             огорожен,                                             дом,                                             все документы",,,,,,,,,,,,
154,"Бишкек, Кок-Жар ж/м, Улан 4/Достоевского",$ 175 000,от агента,4.5 соток,"свет,                                             газ,                                             вода,                                             канализация",,,,42.8443,74.65,,,,,,,,,,,,,,
155,"Бишкек, Мед. академия, Советская",$ 351 000,от агента,3.9 соток,"свет,                                             газ,                                             отопление,                                             вода,                                             канализация","технический паспорт,                                             красная книга",есть,обмен не предлагать,42.847,74.6088,,"дом,                                             ровный",нет,,,,,,,,,,,
156,"Бишкек, Арча-Бешик ж/м, Кара коо",$ 103 000,от собственника,8 соток,"свет,                                             газ,                                             интернет,                                             вода,                                             канализация",,,,42.8258,74.5559,,"времянка,                                             все документы",,,,,,,,,,,,
157,"с. Арашан, село Арашан",$ 28 000,от агента,22 соток,,"зеленая книга,                                             свидетельство о праве на наследство",есть,рассмотрю варианты,42.7175,74.6518,,,нет,,,,,,,,,,,
158,"Бишкек, АУЦА, Иманалиева",$ 78 000,от агента,5 соток,"свет,                                             вода,                                             канализация",красная книга,,,42.8073,74.6175,,все документы,,,,,,,,,,,,
159,с. Семёновка,$ 650 000,от агента,500 соток,,,,,42.6669,77.5611,,,,,,,,,,,,,,
160,"Бишкек, Московская - Уметалиева, Бокомбаева",$ 1 350 000,от агента,16 соток,"свет,                                             газ,                                             вода,                                             канализация","договор купли-продажи,                                             технический паспорт,                                             красная книга",,с доплатой покупателя,42.8682,74.5805,в городе,"огорожен,                                             госакт,                                             удобно под коммерцию,                                             ровный,                                             все документы",,,,,,,,,,,,
161,"дп ""Строитель""",$ 13 000,от собственника,5 соток,,"красная книга,                                             договор купли-продажи",,,42.7783,74.4788,,,,,,,,,,,,,,
162,"Бишкек, Жибек-Жолу - Лермонтова, Лермантова",$ 1 300 000,от агента,140 соток,"свет,                                             газ,                                             вода","договор купли-продажи,                                             акт ввода в эксплуатацию,                                             красная книга",,,42.89,74.6565,в городе,"хозпостройки,                                             огорожен,                                             госакт,                                             ровный,                                             удобный въезд,                                             все документы",нет,,,,,,,,,,,
163,"Бишкек, Орозбекова - Жибек-Жолу",$ 990 000,от агента,18 соток,,,,,42.8843,74.6033,,,,,,,,,,,,,,
164,"Бишкек, Токольдош ж/м",$ 220 000,от агента,6 соток,"свет,                                             газ,                                             вода,                                             канализация","договор купли-продажи,                                             технический паспорт,                                             красная книга",,,42.8677,74.6437,,"хозпостройки,                                             госакт,                                             все документы",,,,,,,,,,,,
165,"Бишкек, Гагарина",$ 110 000,от агента,4 соток,,,,,42.8521,74.5497,,,,,,,,,,,,,,
166,"Бишкек, Тунгуч м-н",$ 260 000,от агента,15 соток,,,,,42.855,74.6919,,,,,,,,,,,,,,
167,Токмок,$ 250 000,от агента,25 соток,,,,,42.838,75.3063,,,,,,,,,,,,,,
168,"Бишкек, Достук",$ 180 000,от агента,5 соток,,,,,42.8846,74.6199,,,,,,,,,,,,,,
169,Каракол,$ 45 000,от агента,50 соток,,,,,42.495,78.4022,,,,,,,,,,,,,,
170,"Бишкек, Сквер Тоголок Молдо",$ 110 000,от агента,2.75 соток,,,,,42.8645,74.5905,,,,,,,,,,,,,,
171,с. Маевка,$ 770 000,от агента,150 соток,"свет,                                             вода",,,,42.9242,74.5769,,,,,,,,,,,,,,
172,с. Военно-Антоновка,$ 25 000,от агента,6 соток,,,,,42.8719,74.4442,,,,,,,,,,,,,,
173,"Бишкек, Ошский рынок, Пушкина",$ 350 000,от агента,12.24 соток,"свет,                                             вода,                                             канализация","договор купли-продажи,                                             технический паспорт,                                             красная книга",,,42.8785,74.5658,,"хозпостройки,                                             госакт,                                             дом",,,,,,,,,,,,
174,с. Ленинское,$ 1 200 000,от агента,350 соток,"свет,                                             вода",зеленая книга,,,42.9396,74.6613,,,,,,,,,,,,,,
175,"с. Беш-Кунгей, начало",$ 95 000,от агента,14.5 соток,"свет,                                             вода","договор купли-продажи,                                             красная книга",,,42.7755,74.6548,,"фундамент,                                             все документы",,,,,,,,,,,,
176,"Бишкек, Ошский рынок, СШ31/Ошский рынок",$ 110 000,от агента,6.42 соток,"свет,                                             вода","технический паспорт,                                             красная книга",,,42.8782,74.5673,,,,,,,,,,,,,,
177,"Бишкек, КНУ",$ 600 000,от агента,10 соток,"свет,                                             газ,                                             интернет,                                             отопление,                                             вода,                                             телефон,                                             канализация",,,,42.8812,74.5915,,"огорожен,                                             госакт,                                             удобно под коммерцию,                                             удобный въезд,                                             все документы",,,,,,,,,,,,
178,с. Аламудун,$ 140 000,от агента,39 соток,,,,,42.8983,74.6425,,,,,,,,,,,,,,
179,"с. им. Фрунзе, объездная",$ 37 000,от агента,1200 соток,,"договор купли-продажи,                                             технический паспорт,                                             красная книга",,,42.9294,74.4326,вдоль трассы,"госакт,                                             ровный,                                             удобный въезд,                                             все документы",,,,,,,,,,,,
180,"Бишкек, Кудайберген, Профсоюзная",$ 60 000,от агента,4 соток,,"договор купли-продажи,                                             акт ввода в эксплуатацию,                                             красная книга",,,42.8845,74.5176,,,,,,,,,,,,,,
181,"с. Тамчы, Береговая линия",$ 35 000,от агента,10 соток,"свет,                                             вода","договор купли-продажи,                                             красная книга",,,42.5656,76.6721,,"госакт,                                             ровный,                                             все документы",,,,,,,,,,,,
182,Токмок,$ 720 000,от агента,600 соток,,,,,42.8378,75.317,,,,,,,,,,,,,,
183,"с. Кок-Джар, мадиева/Кольбаева",$ 290 000,от собственника,15 соток,,"технический паспорт,                                             красная книга",,рассмотрю варианты,42.8209,74.6438,вдоль трассы,,,,,,,,,,,,,
184,"с. Кок-Джар, Кок-Жар/7 апреля",$ 95 000,от собственника,6 соток,"свет,                                             газ,                                             вода,                                             канализация","технический паспорт,                                             красная книга",нет,обмен не предлагать,42.8042,74.648,вдоль трассы,"хозпостройки,                                             огорожен,                                             госакт,                                             удобно под коммерцию,                                             времянка,                                             ровный",нет,,,,,,,,,,,
185,"Бишкек, Арча-Бешик ж/м",$ 250 000,от агента,10 соток,,,,,42.8266,74.5696,,,,,,,,,,,,,,
186,"Бишкек, Баха, Репина/Ахунбаева",$ 130 000,от агента,10 соток,"свет,                                             вода","договор купли-продажи,                                             технический паспорт,                                             красная книга",нет,,42.8435,74.5545,,"сад,                                             хозпостройки,                                             огорожен,                                             госакт,                                             дом,                                             времянка,                                             ровный,                                             удобный въезд,                                             все документы",нет,,,,,,,,,,,
187,Бишкек,$ 32 000,от собственника,4 соток,"свет,                                             интернет,                                             вода",красная книга,,рассмотрю варианты,42.8402,74.4908,в городе,"дом,                                             все документы",,,,,,,,,,,,
188,"Бишкек, Кара-Жыгач ж/м",$ 2 000 000,от агента,100 соток,,,,,42.8585,74.6615,,,,,,,,,,,,,,
189,"Бишкек, Ак-Ордо ж/м, Салкын тор",$ 42 000,от собственника,4 соток,"свет,                                             вода,                                             канализация",красная книга,,,42.8389,74.4828,,,,,,,,,,,,,,
190,"Бишкек, Мед. академия",$ 351 000,от собственника,3.9 соток,"свет,                                             газ,                                             вода,                                             канализация","договор купли-продажи,                                             технический паспорт,                                             красная книга",есть,,42.8448,74.6086,в городе,"огорожен,                                             дом,                                             ровный,                                             удобный въезд,                                             все документы",нет,,,,,,,,,,,
191,"Бишкек, Мед. академия",$ 1 600 000,от собственника,26 соток,"газ,                                             вода,                                             канализация","технический паспорт,                                             красная книга",нет,,42.8445,74.6072,в городе,,нет,,,,,,,,,,,
192,Бишкек,$ 1 550 000,от собственника,39 соток,"свет,                                             газ,                                             вода,                                             канализация","технический паспорт,                                             красная книга",нет,обмен не предлагать,42.8568,74.6348,в городе,все документы,нет,,,,,,,,,,,
193,с. Кызыл-Туу,$ 155 000,от агента,100 соток,"свет,                                             вода",красная книга,,,42.8056,74.3758,,"госакт,                                             все документы,                                             дом,                                             хозпостройки",,,,,,,,,,,,
194,с. Бар-Булак,$ 50 000,от агента,500 соток,,,,,42.2691,76.5879,,,,,,,,,,,,,,
195,с. Корумду (Иссык-Кульский р-н),$ 450 000,от собственника,400 соток,,красная книга,,рассмотрю варианты,42.6858,77.3556,,,,,,,,,,,,,,
196,с. Ивановка,$ 6 000,от собственника,150 соток,вода,красная книга,,,42.8658,75.1058,вдоль трассы,все документы,,,,,,,,,,,,
197,"с. Таш-Добо, Горького 6",$ 17 000,от собственника,8 соток,"свет,                                             вода",,есть,обмен на авто,42.7245,74.5814,,,,,,,,,,,,,,
198,"с. Пригородное, Вниз по Фучика/1-ая линия",$ 260 000,от собственника,38 соток,,,,,42.8969,74.5397,,,,,,,,,,,,,,
199,"Бишкек, Арча-Бешик ж/м, Чортекова/Выше Магистрали",$ 75 000,от собственника,5.8 соток,,"технический паспорт,                                             красная книга",,,42.8242,74.5458,,,,,,,,,,,,,,
200,"с. Маевка, Тепличная Б/н/Тепличная",$ 4 385 000,от собственника,877 соток,"свет,                                             вода","технический паспорт,                                             красная книга",,,42.9221,74.5604,,,,,,,,,,,,,,
201,с. Чат-Кель,$ 180 000,от собственника,800 соток,"свет,                                             вода",,,рассмотрю варианты,42.921,74.3497,,,,,,,,,,,,,,
202,"Бишкек, Рухий Мурас ж/м",$ 140 000,от агента,16 соток,"свет,                                             вода",красная книга,,,42.8453,74.7081,в городе,"огорожен,                                             госакт,                                             ровный,                                             все документы,                                             сад",,,,,,,,,,,,
203,"с. Горная Маевка, Насип уулу Садырбек",$ 75 000,от агента,26 соток,,,есть,,42.7101,74.7452,,,,,0,,,,,,,,,
204,"Бишкек, Курманжан Датка",$ 410 000,от агента,8.24 соток,,,есть,,42.9092,74.6572,,,,,0,,,,,,,,,
205,"Бишкек, Рухий Мурас ж/м, Рухий-Мурас 8-я",$ 37 500,от агента,4 соток,,,есть,,42.8471,74.704,,,,,0,,,,,,,,,
206,"Бишкек, Джальская больница, Ахунбаева 42/30/Симферопольский",$ 1 120 000,от агента,28 соток,"свет,                                             газ,                                             интернет,                                             вода,                                             телефон,                                             канализация","договор купли-продажи,                                             технический паспорт,                                             красная книга",есть,обмен не предлагать,42.8447,74.5799,в городе,"фундамент,                                             огорожен,                                             госакт,                                             дом,                                             ровный,                                             все документы",нет,,,,,,,,,,,
207,"Бишкек, Щербакова 110/Тоголок. Молдо",$ 43 000,от агента,4 соток,"свет,                                             газ,                                             интернет,                                             вода,                                             телефон","договор купли-продажи,                                             технический паспорт",есть,обмен не предлагать,42.9029,74.5966,в городе,"фундамент,                                             хозпостройки,                                             огорожен,                                             дом",нет,,,,,,,,,,,
208,"Бишкек, 8 м-н, Ала-Тоо пер.",$ 238 000,от агента,5 соток,,,нет,,42.8337,74.6094,,,,,0,,,,,,,,,
209,"Бишкек, Ак-Ордо ж/м, Бермет",$ 45 000,от агента,5 соток,,,есть,,42.8566,74.503,,,,,0,,,,,,,,,
210,Бишкек,$ 38 000,от агента,7 соток,,,есть,,42.725,74.5762,,,,,0,,,,,,,,,
211,"Бишкек, АУЦА, Токомбаева",$ 80 000,от собственника,5.5 соток,"свет,                                             газ,                                             интернет,                                             вода,                                             телефон,                                             канализация","договор купли-продажи,                                             красная книга",,,42.8095,74.6241,,все документы,,,,,,,,,,,,
212,"Бишкек, Рухий Мурас ж/м, Рухий-Мурас 4-я",$ 160 000,от агента,12 соток,,,есть,,42.8471,74.704,,,,,0,,,,,,,,,
213,"с. Тамчы, Иссык-Кульская область, село ТАМЧЫ",$ 85 000,от собственника,114 соток,,,,,42.5792,76.709,вдоль трассы,,,,,,,,,,,,,
214,"Бишкек, Кызыл-Аскер ж/м, Садыгалиева 1А/западная промзона",$ 979 674,от собственника,155 соток,"свет,                                             вода,                                             канализация",,,,42.8656,74.525,вдоль трассы,"огорожен,                                             госакт,                                             ровный,                                             удобный въезд,                                             все документы",,,,,,,,,,,,
215,Чолпон-Ата,$ 40 000,от агента,11 соток,"свет,                                             отопление,                                             вода","договор купли-продажи,                                             технический паспорт,                                             красная книга",нет,рассмотрю варианты,42.6475,77.0842,в городе,"ровный,                                             все документы",нет,,,,,,,,,,,
216,Бишкек,$ 65 000,от агента,130 соток,,,нет,,42.7913,74.6152,,,,,0,,,,,,,,,
217,с. Булан-Соготту,$ 6 400,от агента,8 соток,,,,,42.6815,77.3129,,,,,,,,,,,,,,
218,с. Орнок,$ 120 000,от агента,100 соток,,,,,42.597,76.8386,,,,,,,,,,,,,,
219,с. Корумду (Иссык-Кульский р-н),$ 5 900,от агента,7.5 соток,,,,,42.6902,77.3432,,,,,,,,,,,,,,
220,с. Бостери,$ 225 000,от агента,205 соток,,"красная книга,                                             договор купли-продажи",,,42.6473,77.1607,,,,,,,,,,,,,,
221,с. Чок-Тал,$ 22 999,от агента,14 соток,,,,,42.5749,76.723,,,,,,,,,,,,,,
222,с. Григорьевская пристань,$ 9 000,от агента,50 соток,,"договор купли-продажи,                                             красная книга",,,42.658,77.4591,,,,,,,,,,,,,,
223,с. Кара-Ой,$ 750 000,от агента,500 соток,,,,,42.6066,77.0261,,,,,,,,,,,,,,
224,с. Кара-Ой,$ 5 600,от агента,7 соток,,,есть,рассмотрю варианты,42.6293,77.0057,в городе,,,,,,,,,,,,,
225,с. Григорьевская пристань,$ 16 000,от агента,100 соток,,"красная книга,                                             договор купли-продажи",,,42.6624,77.4382,,,,,,,,,,,,,,
226,Чолпон-Ата,$ 11 400,от агента,4 соток,,,,,42.6367,77.0503,,,,,,,,,,,,,,
227,с. Кок-Джар,$ 40 000,от агента,4.3 соток,,,,,42.8094,74.6515,,,,,,,,,,,,,,
228,с. Григорьевская пристань,$ 8 900,от агента,50 соток,,красная книга,есть,,42.6557,77.4577,,,,,,,,,,,,,,
229,с. Корумду (Иссык-Кульский р-н),$ 6 900,от агента,8 соток,,"договор купли-продажи,                                             красная книга",,,42.6813,77.3144,,,,,,,,,,,,,,
230,с. Корумду (Иссык-Кульский р-н),$ 11 000,от агента,4 соток,,"договор купли-продажи,                                             красная книга",,,42.6832,77.3841,,,,,,,,,,,,,,
231,с. Темировка,$ 6 400,от агента,50 соток,,,,,42.7098,77.4073,,,,,,,,,,,,,,
232,с. Семёновка,$ 210 000,от агента,1700 соток,,,,,42.6745,77.572,,,,,,,,,,,,,,
233,с. Кичи-Орукту,$ 9 000,от агента,50 соток,,красная книга,есть,,42.7367,77.9887,,,,,,,,,,,,,,
234,с. Тамчы,$ 16 900,от агента,10 соток,,"договор купли-продажи,                                             красная книга",,,42.5621,76.64,,,,,,,,,,,,,,
235,"Бишкек, ИБРАИМОВА ЛЬВА ТОЛСТОГО 2 ПРОРАБА",$ 460 000,от собственника,18 соток,,,,,42.8626,74.6207,,,,,,,,,,,,,,
236,"Бишкек, Магистраль, Масалиева/Малдыбаева",$ 250 000,от агента,7 соток,,"договор купли-продажи,                                             технический паспорт,                                             красная книга",,обмен не предлагать,42.8298,74.596,вдоль трассы,"удобно под коммерцию,                                             ровный,                                             удобный въезд,                                             все документы",,,,,,,,,,,,
237,"с. Кой-Таш, 12 каминов, Таверна",$ 30 000,от собственника,15 соток,,"зеленая книга,                                             договор купли-продажи",,рассмотрю варианты,42.6323,74.6713,в предгорьях,,,,,,,,,,,,,
238,"Бишкек, Кара Дарыя",$ 312 000,от агента,208 соток,,,,,42.8567,74.6309,,,,,,,,,,,,,,
239,"Бишкек, 12 м-н",$ 66 500,от агента,5 соток,,,,,42.8144,74.6359,,,,,,,,,,,,,,
240,Шопоков,$ 120 000,от собственника,14 соток,"свет,                                             вода",,,,42.8643,74.3391,вдоль трассы,,,,,,,,,,,,,
241,с. Тамчы,$ 2 000 000,от собственника,1800 соток,свет,красная книга,,,42.5768,76.7091,возле водоема,"госакт,                                             удобно под коммерцию,                                             все документы",,,,,,,,,,,,
242,с. Спартак,$ 35 000,от собственника,900 соток,,,,рассмотрю варианты,43.0362,74.13,,"госакт,                                             удобно под коммерцию,                                             все документы",,,,,,,,,,,,
243,"Бишкек, Магистраль",$ 1 000 000,от собственника,17 соток,"свет,                                             газ,                                             интернет,                                             вода,                                             телефон,                                             канализация",красная книга,,рассмотрю варианты,42.8182,74.6079,,"госакт,                                             удобно под коммерцию,                                             все документы",есть,,,,,,,,,,,
244,"Бишкек, Бакай-Ата ж/м",$ 28 500,от агента,5 соток,"свет,                                             вода,                                             канализация,                                             интернет",,,,42.8966,74.6519,,,,,,,,,,,,,,
245,"Бишкек, Кок-Жар ж/м, Улан",$ 135 000,от агента,4.2 соток,,,есть,,42.8442,74.6431,,,,,0,,,,,,,,,
246,"с. Тосор, Участок Сары талаа",$ 160 000,от собственника,100 соток,"свет,                                             интернет,                                             вода,                                             телефон",красная книга,,,42.17,77.3685,,"сад,                                             удобно под коммерцию,                                             дом,                                             ровный,                                             удобный въезд,                                             все документы",,,,,,,,,,,,
247,с. Чок-Тал,$ 1 000 000,от агента,650 соток,,,,,42.5888,76.7424,,,,,,,,,,,,,,
248,"с. Озёрное, село Озерное",$ 105 000,от агента,150 соток,,,,,42.941,74.4346,в пригороде,,,,,,,,,,,,,
249,"с. Селекционное, Чатыр-Кол",$ 125 000,от агента,5.6 соток,,,есть,,42.8356,74.525,,,,,0,,,,,,,,,
250,"с. Беш-Кунгей, Сарбагышова Шукуралы 35",$ 98 000,от собственника,7 соток,"газ,                                             вода,                                             канализация",красная книга,,обмен не предлагать,42.7927,74.6538,,"времянка,                                             все документы",есть,,,,,,,,,,,
251,с. Тору-Айгыр,$ 20 000,от собственника,3 соток,"свет,                                             вода",,,,42.4746,76.4009,возле водоема,удобно под коммерцию,,,,,,,,,,,,
252,"Бишкек, Ак-Бата ж/м",$ 172 000,от агента,15 соток,,"договор купли-продажи,                                             красная книга",,,42.949,74.6116,,,,,,,,,,,,,,
253,с. Тору-Айгыр,$ 20 000,от собственника,3 соток,"свет,                                             вода",,,обмен не предлагать,42.4755,76.3987,возле водоема,,,,,,,,,,,,,
254,"Бишкек, Новооктябрьский пер",$ 130 000,от агента,4.4 соток,,,нет,,42.8969,74.5758,,,,,0,,,,,,,,,
255,"с. Гавриловка, Фрунзе",$ 310 000,от агента,37 соток,,,нет,,42.8691,74.3574,,,,,0,,,,,,,,,
256,с. Арашан,$ 22 000,от агента,4 соток,,,,,42.731,74.651,,,,,,,,,,,,,,
257,м-н Оскон-Ордо,$ 40 000,от собственника,4 соток,,,,,42.8412,74.6928,,,,,,,,,,,,,,
258,"с. Кашка-Баш, Исмаил уулу Асанкула",$ 450 000,от агента,1.64 соток,,,есть,,42.8121,74.5053,,,,,0,,,,,,,,,
259,"с. Арашан, Исабекова Бейшенбая",$ 65 000,от агента,11 соток,,,есть,,42.7219,74.6561,,,,,0,,,,,,,,,
260,"Бишкек, Арча-Бешик ж/м, кара кужур/чертекова",$ 66 000,от агента,8 соток,,"договор купли-продажи,                                             красная книга,                                             технический паспорт",,обмен не предлагать,42.8282,74.5437,,,,,,,,,,,,,,
261,"с. Кашка-Баш, Исмаил уулу Асанкула",$ 230 000,от агента,0.82 соток,,,есть,,42.8121,74.5053,,,,,0,,,,,,,,,
262,"с. Кашка-Баш, Исмаил уулу Асанкула",$ 230 000,от агента,0.82 соток,,,есть,,42.8121,74.5053,,,,,0,,,,,,,,,
263,"с. Ак-Джол, Объездная -Васильевский тракт.",$ 1 500 000,от собственника,1100 соток,,договор купли-продажи,,рассмотрю варианты,42.9344,74.4884,вдоль трассы,,,,,,,,,,,,,
264,"с. Ак-Джол, Васильевский тракт/Васильевский тракт",$ 261 000,от собственника,380 соток,,договор купли-продажи,,рассмотрю варианты,42.9564,74.4729,вдоль трассы,,,,,,,,,,,,,
265,"с. Арашан, Чункурчак",$ 40 000,от агента,10 соток,,,есть,,42.7219,74.6561,,,,,0,,,,,,,,,
266,"Бишкек, Кок-Жар ж/м",$ 100 000,от агента,6 соток,,,,,42.841,74.6409,,,,,,,,,,,,,,
267,"Бишкек, Карпинка",$ 250 000,от агента,13 соток,,"красная книга,                                             зеленая книга",,,42.8641,74.6231,,,,,,,,,,,,,,
268,Токмок,$ 550 000,от агента,100 соток,,,,,42.8102,75.3197,,,,,,,,,,,,,,
269,с. Тосор,$ 110 000,от агента,100 соток,,,есть,,42.164,77.4382,,,,,0,,,,,,,,,
270,"Бишкек, 8 м-н, Жукеева-Пудовкина",$ 160 000,от агента,4 соток,,,есть,,42.8337,74.6094,,,,,0,,,,,,,,,
271,с. Джениш,$ 50 000,от агента,100 соток,,,нет,,42.2792,77.793,,,,,0,,,,,,,,,
272,с. Таш-Добо,$ 110 000,от агента,16 соток,,,,,42.7196,74.5731,,,,,,,,,,,,,,
273,с. Корумду (Иссык-Кульский р-н),$ 499 000,от агента,500 соток,,,нет,,42.6916,77.3508,,,,,0,,,,,,,,,
274,с. Октябрьское (Аламудунский р-н),$ 95 000,от агента,66 соток,,,,,43.1088,74.5035,,,,,,,,,,,,,,
275,"Чолпон-Ата, Кычан Жакыпова",$ 299 000,от агента,23.4 соток,,,нет,,42.6456,77.0624,,,,,0,,,,,,,,,
276,"Бишкек, Рабочий Городок, Баха/Гагарина",$ 63 000,от агента,5.5 соток,"свет,                                             газ,                                             интернет,                                             вода",,нет,обмен не предлагать,42.8585,74.5603,,"огорожен,                                             дом",нет,,,,,,,,,,,
277,"Бишкек, Таатан, Саратовская/Веселая",$ 220 000,от агента,11.29 соток,"свет,                                             газ,                                             интернет,                                             вода,                                             канализация","договор купли-продажи,                                             технический паспорт,                                             красная книга",есть,обмен не предлагать,42.8813,74.6488,в городе,"фундамент,                                             хозпостройки,                                             огорожен,                                             госакт,                                             дом,                                             все документы",нет,,,,,,,,,,,
278,с. Арашан,$ 57 000,от собственника,6.2 соток,"свет,                                             интернет,                                             вода","договор купли-продажи,                                             технический паспорт,                                             красная книга",нет,обмен не предлагать,42.7312,74.6522,в дачном массиве,"фундамент,                                             огорожен,                                             госакт,                                             ровный,                                             удобный въезд,                                             все документы",нет,,,,,,,,,,,
279,с. Таш-Добо,$ 120 000,от агента,16 соток,,,,,42.7229,74.5794,,,,,,,,,,,,,,
280,Беловодское,$ 29 000,от агента,10 соток,,,,,42.8323,74.1194,,,,,,,,,,,,,,
281,"с. Чуй, Покровская 65/не доезжая до ключевой",$ 18 990,от собственника,6.5 соток,,"технический паспорт,                                             красная книга",,,42.8171,75.2774,в пригороде,,,,,,,,,,,,,
282,"Бишкек, Киргизия 1 ж/м",$ 485 000,от агента,16 соток,,,,,42.8173,74.5826,,,,,,,,,,,,,,
283,"Бишкек, Тунгуч м-н",$ 180 000,от агента,15 соток,,,,,42.852,74.6894,,,,,,,,,,,,,,
284,"Бишкек, 8 м-н, Октябрьская",$ 106 000,от агента,9.35 соток,,,есть,,42.8337,74.6094,,,,,0,,,,,,,,,
285,"Бишкек, Тепличная",$ 5 100 000,от агента,1829 соток,,,нет,,42.9207,74.5719,,,,,0,,,,,,,,,
286,Кара-Балта,$ 132 000,от агента,25 соток,,,,,42.7985,73.8518,,,,,,,,,,,,,,
287,с. Васильевка,$ 539 000,от собственника,1100 соток,свет,"договор дарения,                                             красная книга",,рассмотрю варианты,43.1074,74.5898,возле водоема,"удобный въезд,                                             все документы",есть,,,,,,,,,,,
288,с. Восток,$ 327 700,от собственника,113 соток,"свет,                                             вода","договор дарения,                                             красная книга",,рассмотрю варианты,42.9191,74.6838,возле водоема,"удобный въезд,                                             все документы",есть,,,,,,,,,,,
289,"Бишкек, Орозбекова - Жибек-Жолу",$ 60 000,от собственника,4 соток,"свет,                                             газ,                                             вода","договор купли-продажи,                                             технический паспорт,                                             красная книга",нет,,42.8883,74.6044,,,нет,,,,,,,,,,,
290,с. Новопавловка,$ 57 000,от агента,10 соток,,,,,42.8721,74.4742,,,,,,,,,,,,,,
291,с. Новопокровка,$ 360 000,от агента,330 соток,,,,,42.877,74.7664,,,,,,,,,,,,,,
292,"Бишкек, Матросова",$ 155 000,от агента,5 соток,,,,,42.8425,74.6154,,,,,,,,,,,,,,
293,Каракол,$ 100 000,от агента,8 соток,,,,,42.5736,78.3181,,,,,,,,,,,,,,
294,"Бишкек, Ата-Журт",$ 150 000,от агента,120 соток,,,есть,,42.8751,75.1703,,,,,0,,,,,,,,,
295,"Бишкек, Асанбай м-н",$ 2 500 000,от агента,120 соток,,,,,42.816,74.6284,,,,,,,,,,,,,,
296,"Бишкек, Асанбай м-н",$ 3 150 000,от агента,150 соток,,,,,42.8165,74.6276,,,,,,,,,,,,,,
297,"Бишкек, Матросова",$ 460 000,от агента,20 соток,,,,,42.853,74.6193,,,,,,,,,,,,,,
298,Бишкек,$ 650 000,от агента,26 соток,,"красная книга,                                             зеленая книга",,,42.8631,74.6171,,,,,,,,,,,,,,
299,с. Орто-Орукту,$ 5 000,от агента,200 соток,,,,,42.7445,77.942,,,,,,,,,,,,,,
300,"с. Байтик, Суйунбаева",$ 78 000,от агента,15 соток,,,есть,,42.7447,74.5433,,,,,0,,,,,,,,,
301,"Бишкек, Киргизия 1 ж/м",$ 485 000,от агента,16 соток,,,,,42.8138,74.5832,,,,,,,,,,,,,,
302,Бишкек,$ 55 000,от собственника,4 соток,,,,,42.8851,74.5189,,,,,,,,,,,,,,
303,"с. Тору-Айгыр, Ахунбаева",$ 168 000,от агента,250 соток,,,есть,,42.4958,76.425,,,,,0,,,,,,,,,
304,"Бишкек, Темировский переулок",$ 45 000,от агента,4.6 соток,,,есть,,42.8969,74.5758,,,,,0,,,,,,,,,
305,"Сокулук, Белинского",$ 55 000,от агента,35 соток,,,есть,,42.8546,74.2743,,,,,0,,,,,,,,,
306,"Бишкек, Арча-Бешик ж/м, Жайыл Баатыра",$ 215 000,от агента,6.4 соток,,,есть,,42.8357,74.5479,,,,,0,,,,,,,,,
307,"Бишкек, Арча-Бешик ж/м, Бакаева",$ 305 000,от агента,8 соток,,,нет,,42.8357,74.5479,,,,,0,,,,,,,,,
308,"Чолпон-Ата, Советская",$ 200 000,от агента,65 соток,,,нет,,42.6456,77.0624,,,,,0,,,,,,,,,
309,"Чолпон-Ата, Советская",$ 200 000,от агента,65 соток,,,нет,,42.6456,77.0624,,,,,0,,,,,,,,,
310,"Чолпон-Ата, Советская",$ 1 000 000,от агента,450 соток,,,нет,,42.6456,77.0624,,,,,0,,,,,,,,,
311,"Бишкек, Медерова/Токтоналиева",$ 106 000,от агента,5 соток,"свет,                                             газ,                                             интернет,                                             вода,                                             канализация","договор купли-продажи,                                             технический паспорт,                                             красная книга",нет,обмен не предлагать,42.8544,74.5921,,"хозпостройки,                                             огорожен,                                             дом",нет,,,,,,,,,,,
312,Лебединовка,$ 150 000,от агента,235 соток,,,нет,,42.8858,74.6667,,,,,0,,,,,,,,,
313,"Бишкек, 8 м-н, Бегматова",$ 165 000,от агента,6 соток,,,есть,,42.8337,74.6094,,,,,0,,,,,,,,,
314,"Бишкек, Кожобергенова",$ 500 000,от агента,17.2 соток,,,нет,,42.7913,74.6152,,,,,0,,,,,,,,,
315,с. Тамчы,$ 125 000,от собственника,12 соток,"свет,                                             вода",технический паспорт,,рассмотрю варианты,42.5645,76.6555,вдоль трассы,,,,,,,,,,,,,
316,"Бишкек, Ак-Босого ж/м, Бухарская/Чуй-10",$ 30 000,от собственника,3.5 соток,"свет,                                             вода","красная книга,                                             договор купли-продажи",,обмен не предлагать,42.932,74.5877,вдоль трассы,"огорожен,                                             госакт,                                             удобно под коммерцию,                                             ровный,                                             удобный въезд",,,,,,,,,,,,
317,"Сокулук, Разная",$ 90 000,от агента,70.2 соток,,,нет,,42.8546,74.2743,,,,,0,,,,,,,,,
318,"с. Кок-Джар, Контур-199",$ 1 300 000,от агента,290 соток,,,есть,,42.8106,74.6526,,,,,0,,,,,,,,,
319,"Каракол, Актилек +/Гречко",$ 340 000,от собственника,14 соток,вода,красная книга,есть,рассмотрю варианты,42.4949,78.3848,,"удобно под коммерцию,                                             дом,                                             все документы",есть,,,,,,,,,,,
320,"Бишкек, Арча-Бешик ж/м, Барпы Алыкулова",$ 490 000,от агента,25 соток,,,есть,,42.8357,74.5479,,,,,0,,,,,,,,,
321,"Каракол, Коенкозова 104/Кучуков",$ 240 000,от собственника,30 соток,"свет,                                             отопление,                                             вода,                                             канализация",красная книга,есть,рассмотрю варианты,42.4977,78.4126,,"хозпостройки,                                             удобно под коммерцию,                                             дом,                                             времянка,                                             ровный,                                             удобный въезд,                                             все документы",есть,,,,,,,,,,,
322,"Бишкек, Курганская",$ 470 000,от агента,24.6 соток,,,нет,,42.9092,74.6572,,,,,0,,,,,,,,,
323,"Ош, Мкр. Ак Тилек",$ 130 000,от собственника,12 соток,"свет,                                             газ,                                             интернет,                                             вода,                                             канализация",красная книга,нет,,40.5022,72.7772,в городе,"фундамент,                                             удобно под коммерцию",нет,,,,,,,,,,,
324,"Бишкек, 8 м-н, Байтик Баатыра",$ 672 000,от агента,21 соток,,,есть,,42.8337,74.6094,,,,,0,,,,,,,,,
325,"Бишкек, Арча-Бешик ж/м, Садырбаева",$ 212 000,от агента,9.3 соток,,,есть,,42.8357,74.5479,,,,,0,,,,,,,,,
326,"Бишкек, Учкурганская",$ 155 000,от агента,9 соток,,,есть,,42.8969,74.5758,,,,,0,,,,,,,,,
327,"Бишкек, Аламедин-1 м-н, Турсун Бяра",$ 59 000,от агента,6 соток,,,есть,,42.8779,74.6897,,,,,0,,,,,,,,,
328,с. Кок-Джар,$ 100 000,от агента,10 соток,,"договор купли-продажи,                                             красная книга",нет,рассмотрю варианты,42.8125,74.6454,в дачном массиве,,нет,,,,,,,,,,,
329,Чолпон-Ата,$ 500 000,от агента,200 соток,,,нет,,42.6456,77.0624,,,,,0,,,,,,,,,
330,"с. Арашан, Аламудунская/Узун Кыз",$ 300 000,от агента,43 соток,"интернет,                                             вода,                                             свет",,,обмен не предлагать,42.7232,74.6495,вдоль трассы,"госакт,                                             ровный,                                             все документы,                                             удобный въезд",,,,,,,,,,,,
331,"с. Беш-Кунгей, Бакбаева/Мыктыбек уулу сарыбагыш",$ 65 000,от агента,8 соток,"свет,                                             вода",,,обмен не предлагать,42.7723,74.6493,в городе,,,,,,,,,,,,,
332,Бишкек,$ 350 000,от агента,300 соток,,,нет,,42.7913,74.6152,,,,,0,,,,,,,,,
333,с. Лесное (Сокулукский р-н),$ 10 949,от собственника,4 соток,,,,обмен на авто,42.989,74.4259,в пригороде,,,,,,,,,,,,,
334,"Сокулук, Тендик",$ 28 000,от агента,5 соток,,,есть,,42.8546,74.2743,,,,,0,,,,,,,,,
335,"с. Военно-Антоновка, Южная",$ 88 000,от агента,5 соток,,,есть,,42.8752,74.4538,,,,,0,,,,,,,,,
336,"Бишкек, Ынтымак ж/м, Орто",$ 178 000,от агента,9 соток,"свет,                                             газ,                                             интернет,                                             отопление,                                             вода,                                             канализация","договор купли-продажи,                                             красная книга",,рассмотрю варианты,42.8127,74.5727,в городе,"хозпостройки,                                             огорожен,                                             госакт,                                             времянка,                                             дом,                                             ровный,                                             удобный въезд,                                             все документы",,,,,,,,,,,,
337,"Бишкек, Лермонтова",$ 250 000,от агента,13.4 соток,,,нет,,42.7913,74.6152,,,,,0,,,,,,,,,
338,"Бишкек, Тенир-Тоо м-н",$ 75 000,от собственника,3 соток,"свет,                                             вода","договор купли-продажи,                                             красная книга",нет,рассмотрю варианты,42.8442,74.5351,вдоль трассы,"сад,                                             огорожен,                                             ровный",нет,,,,,,,,,,,
339,"с. Гавриловка, Максима горького 117а",$ 25 000,от агента,8 соток,"свет,                                             газ","договор купли-продажи,                                             технический паспорт,                                             красная книга",,обмен не предлагать,42.8693,74.35,в пригороде,"фундамент,                                             хозпостройки,                                             огорожен,                                             госакт",,,,,,,,,,,,
340,"Токмок, 3мкр",$ 180 000,от агента,2800 соток,,"договор купли-продажи,                                             красная книга",,рассмотрю варианты,42.7969,75.3156,вдоль трассы,"все документы,                                             удобный въезд,                                             ровный,                                             удобно под коммерцию,                                             ж/д тупик",,,,,,,,,,,,
341,с. Арашан,$ 83 000,от агента,18 соток,,,,рассмотрю варианты,42.7315,74.6449,,,,,,,,,,,,,,
342,"Бишкек, Советская - Скрябина",$ 230 000,от агента,4.5 соток,"свет,                                             газ,                                             отопление,                                             вода,                                             канализация","договор купли-продажи,                                             технический паспорт,                                             красная книга",,рассмотрю варианты,42.8527,74.6107,в городе,"хозпостройки,                                             огорожен,                                             удобно под коммерцию,                                             дом,                                             ровный,                                             все документы",,,,,,,,,,,,
343,"Бишкек, Льва Толстого/Асаналиева",$ 2 000 000,от агента,54 соток,"свет,                                             газ,                                             интернет,                                             отопление,                                             вода,                                             телефон,                                             канализация","договор купли-продажи,                                             красная книга",нет,обмен не предлагать,42.8654,74.5694,в городе,"фундамент,                                             удобно под коммерцию,                                             ровный,                                             удобный въезд,                                             все документы",нет,,,,,,,,,,,
344,Бишкек,$ 750 000,от собственника,150 соток,"свет,                                             вода","договор купли-продажи,                                             технический паспорт,                                             красная книга",нет,обмен не предлагать,42.9286,74.5794,в пригороде,"фундамент,                                             хозпостройки,                                             огорожен,                                             удобно под коммерцию,                                             времянка,                                             ровный,                                             удобный въезд,                                             все документы",нет,,,,,,,,,,,
345,"Бишкек, Кара-Жыгач ж/м, Анкара",$ 390 000,от агента,20 соток,"свет,                                             вода,                                             канализация","договор купли-продажи,                                             красная книга",,,42.8551,74.6566,вдоль трассы,,,,,,,,,,,,,
346,"Бишкек, 6 м-н, Сухэ Батора",$ 80 000,от агента,2 соток,"свет,                                             газ,                                             вода,                                             канализация",,,,42.8269,74.6284,,,,,,,,,,,,,,
347,с. Арашан,$ 15 000,от собственника,100 соток,,,,,42.7192,74.6497,в предгорьях,,,,,,,,,,,,,
348,"Бишкек, Кок-Жар ж/м, Тон",$ 78 000,от собственника,9 соток,"свет,                                             газ,                                             вода,                                             канализация","договор купли-продажи,                                             технический паспорт,                                             красная книга",нет,рассмотрю варианты,42.8354,74.6392,в городе,"фундамент,                                             сад,                                             огорожен,                                             госакт,                                             времянка,                                             ровный,                                             удобный въезд,                                             все документы",нет,,,,,,,,,,,
349,с. Кок-Джар,$ 25 000,от собственника,5 соток,"свет,                                             газ,                                             вода,                                             канализация",,,обмен на авто,42.8334,74.6553,,"госакт,                                             ровный,                                             удобный въезд",,,,,,,,,,,,
350,"Бишкек, Пишпек ж/м",$ 45 000,от агента,3.3 соток,"свет,                                             газ,                                             интернет,                                             отопление,                                             вода,                                             канализация",,,,42.8577,74.5493,,,,,,,,,,,,,,
351,"Бишкек, Учкун-2 ж/м",$ 99 900,от агента,11 соток,,,,,42.8649,74.6931,,,,,,,,,,,,,,
352,"Бишкек, Карпинка",$ 145 000,от агента,3 соток,,,,,42.8717,74.6238,,,,,,,,,,,,,,
353,"Бишкек, Кара-Жыгач ж/м, Льва Толстого/Достоевского",$ 115 000,от агента,5 соток,"свет,                                             газ,                                             вода,                                             канализация","договор купли-продажи,                                             технический паспорт,                                             красная книга",нет,обмен не предлагать,42.8665,74.6538,вдоль трассы,"фундамент,                                             огорожен,                                             госакт,                                             удобно под коммерцию,                                             дом,                                             времянка,                                             ровный,                                             все документы",нет,,,,,,,,,,,
354,"Бишкек, Западный автовокзал,  ул. Павлова ул Ак  муз/ул Рыскулова",$ 830 000,от собственника,20 соток,,,,рассмотрю варианты,42.8803,74.567,в городе,,,,,,,,,,,,,
355,"Бишкек, Гагарина",$ 270 000,от агента,9 соток,,,,,42.8499,74.5586,,,,,,,,,,,,,,
356,Бишкек,$ 125 000,от агента,10 соток,,,,,42.8053,74.6184,,,,,,,,,,,,,,
357,"Бишкек, Арча-Бешик ж/м",$ 107 000,от агента,7 соток,"свет,                                             газ,                                             интернет,                                             вода,                                             телефон,                                             канализация",,,,42.837,74.5525,,,,,,,,,,,,,,
358,"Бишкек, Арча-Бешик ж/м",$ 118 000,от агента,8 соток,"свет,                                             газ,                                             интернет,                                             вода,                                             канализация","договор купли-продажи,                                             красная книга",,обмен не предлагать,42.815,74.5627,,"сад,                                             хозпостройки,                                             госакт,                                             времянка,                                             все документы",,,,,,,,,,,,
359,"Бишкек, ж/м Ала-Арча 2, Шералиев",$ 66 000,от агента,4 соток,"свет,                                             газ,                                             канализация","договор купли-продажи,                                             технический паспорт,                                             красная книга",,обмен не предлагать,42.8125,74.5598,вдоль трассы,,,,,,,,,,,,,
360,"Бишкек, Арча-Бешик ж/м",$ 110 000,от агента,8 соток,"свет,                                             газ,                                             телефон,                                             канализация,                                             вода,                                             интернет","договор купли-продажи,                                             красная книга,                                             технический паспорт",,обмен не предлагать,42.8257,74.5536,,,,,,,,,,,,,,
361,"с. Таш-Мойнок, село Таш-Мойнок",$ 45 000,от агента,7 соток,"свет,                                             вода,                                             интернет","договор купли-продажи,                                             красная книга",,,42.7392,74.6555,в пригороде,,,,,,,,,,,,,
362,"с. Беш-Кунгей, село Беш-Кунгей",$ 35 000,от агента,6 соток,"свет,                                             интернет,                                             вода","договор купли-продажи,                                             технический паспорт,                                             красная книга",,,42.7713,74.6453,в пригороде,"огорожен,                                             госакт,                                             времянка,                                             ровный,                                             все документы",,,,,,,,,,,,
363,"с. Кок-Джар, село Кок-Жар",$ 95 000,от агента,7.5 соток,"свет,                                             газ,                                             интернет,                                             вода,                                             телефон,                                             канализация","договор купли-продажи,                                             красная книга",,,42.8267,74.6479,в городе,"огорожен,                                             госакт,                                             удобно под коммерцию,                                             ровный,                                             все документы",,,,,,,,,,,,
364,"с. Кок-Джар,  улица Куланова",$ 48 000,от агента,6 соток,"свет,                                             газ,                                             интернет,                                             вода,                                             телефон","договор купли-продажи,                                             красная книга",,,42.8322,74.6441,в городе,,,,,,,,,,,,,
365,"Бишкек, Ак-Ордо ж/м, Алтын байрак 43/Каркыра",$ 48 000,от агента,5 соток,"свет,                                             газ,                                             интернет,                                             вода,                                             канализация","технический паспорт,                                             договор купли-продажи,                                             красная книга",,обмен не предлагать,42.8415,74.5058,,,,,,,,,,,,,,
366,с. Калтар,$ 35 000,от агента,10 соток,"свет,                                             вода","договор купли-продажи,                                             технический паспорт,                                             красная книга",,,42.8181,74.5228,в пригороде,"ровный,                                             все документы",,,,,,,,,,,,
367,"Бишкек, Арча-Бешик ж/м",$ 51 000,от агента,4 соток,,,,,42.8162,74.5577,,,,,,,,,,,,,,
368,с. Таш-Мойнок,$ 45 000,от агента,7 соток,,,,,42.7362,74.6553,,,,,,,,,,,,,,
369,"Бишкек, Арча-Бешик ж/м",$ 51 000,от агента,5 соток,,,,,42.8184,74.5618,,,,,,,,,,,,,,
370,"Бишкек, Арча-Бешик ж/м, Баба Ата/Айылчиев",$ 125 000,от агента,8 соток,"свет,                                             газ,                                             интернет,                                             вода,                                             телефон,                                             канализация","договор купли-продажи,                                             красная книга",,,42.8271,74.5591,,,,,,,,,,,,,,
371,Бишкек,$ 672 000,от агента,42 соток,"свет,                                             вода,                                             канализация","технический паспорт,                                             красная книга",,,42.8627,74.6804,,,,,,,,,,,,,,
372,"Бишкек, Чуй - Алматинка, Огонбаева/западная",$ 75 000,от агента,8 соток,"свет,                                             газ,                                             вода,                                             канализация","договор купли-продажи,                                             технический паспорт,                                             красная книга",,,42.8778,74.6315,,"огорожен,                                             госакт,                                             удобно под коммерцию,                                             дом,                                             времянка",,,,,,,,,,,,
373,"Бишкек, Арча-Бешик ж/м, 18-көчө",$ 75 000,от агента,8 соток,,,,,42.8141,74.5584,,,,,,,,,,,,,,
374,"Бишкек, Арча-Бешик ж/м",$ 88 500,от агента,8 соток,"свет,                                             газ,                                             интернет,                                             вода,                                             телефон,                                             канализация",,,,42.8358,74.5433,,,,,,,,,,,,,,
375,"Бишкек, Арча-Бешик ж/м, Жайыл Баатыр",$ 210 000,от агента,6 соток,,,,,42.8267,74.5476,,,,,,,,,,,,,,
376,"Бишкек, 12 м-н",$ 170 000,от агента,5 соток,"свет,                                             газ,                                             интернет,                                             отопление,                                             вода,                                             телефон,                                             канализация",,,,42.8143,74.6398,в городе,"удобно под коммерцию,                                             госакт,                                             фундамент",,,,,,,,,,,,
377,"Бишкек, АУЦА",$ 250 000,от агента,75 соток,,,,,42.8071,74.6164,,,,,,,,,,,,,,
378,"Бишкек, АУЦА",$ 67 000,от агента,5 соток,,,,,42.8081,74.6177,,,,,,,,,,,,,,
379,с. Кой-Таш,$ 128 000,от агента,50 соток,,,,,42.6909,74.6722,,,,,,,,,,,,,,
380,"ж/м Биримдик Кут, Биримдик кут/11кочо",$ 220 000,от агента,43 соток,"свет,                                             вода",,,,42.9212,74.6954,в городе,,,,,,,,,,,,,
381,"Бишкек, Ак-Орго ж/м, Гагарина/садыкова",$ 48 000,от агента,5 соток,"канализация,                                             вода,                                             газ,                                             свет",,,,42.8558,74.5238,в городе,"дом,                                             все документы",,,,,,,,,,,,
382,с. Беш-Кунгей,$ 198 000,от агента,50 соток,газ,,,,42.7611,74.6428,в предгорьях,"ровный,                                             все документы",,,,,,,,,,,,
383,"Бишкек, баялинова/курганская",$ 480 000,от агента,24 соток,"свет,                                             газ,                                             вода,                                             канализация",,,,42.895,74.5985,в городе,"дом,                                             все документы",,,,,,,,,,,,
384,д/п Бек-Тоо,$ 150 000,от агента,2.3 соток,,зеленая книга,,,42.7925,74.6982,в предгорьях,,,,,,,,,,,,,
385,"Бишкек, Чуй - Алматинка, Айтматова",$ 40 000,от агента,4 соток,"свет,                                             газ,                                             вода,                                             канализация","договор купли-продажи,                                             красная книга",,,42.8801,74.6277,,,,,,,,,,,,,,
386,с. Байтик,$ 65 000,от агента,50 соток,,,,,42.7536,74.5536,,,,,,,,,,,,,,
387,"Бишкек, Ынтымак ж/м",$ 350 000,от агента,16 соток,"свет,                                             газ,                                             интернет,                                             вода,                                             телефон,                                             канализация",,,обмен не предлагать,42.8148,74.5645,,,,,,,,,,,,,,
388,Беловодское/Садовое,$ 85 000,от агента,95 соток,"свет,                                             вода,                                             отопление,                                             интернет",красная книга,,,42.7826,74.0818,,"хозпостройки,                                             удобно под коммерцию,                                             госакт,                                             все документы,                                             дом",,,,,,,,,,,,
389,"с. Новопокровка, Линейная 126а",$ 135 000,от агента,38 соток,"свет,                                             вода","красная книга,                                             технический паспорт,                                             договор купли-продажи",,,42.8663,74.7255,,все документы,,,,,,,,,,,,
390,"Кант, 3 мкрн",$ 270 000,от агента,78 соток,,,есть,обмен не предлагать,42.8817,74.8549,в городе,,есть,,,,,,,,,,,
391,"Бишкек, Кок-Жар ж/м, Достоевского",$ 600 000,от собственника,100 соток,,зеленая книга,,рассмотрю варианты,42.8459,74.6504,,ровный,,,,,,,,,,,,
392,"Бишкек, Алматинка - Магистраль",$ 280 000,от собственника,13 соток,,"красная книга,                                             технический паспорт,                                             договор купли-продажи",,,42.8029,74.6471,в городе,,,,,,,,,,,,,
393,"с. Таш-Добо, Киргизская 76",$ 70 000,от собственника,12 соток,,"технический паспорт,                                             красная книга,                                             договор дарения",,обмен не предлагать,42.7335,74.573,в пригороде,,,,,,,,,,,,,
394,"Лебединовка, Шайлобек 27",$ 18 000,от агента,4 соток,"газ,                                             свет,                                             вода","договор купли-продажи,                                             красная книга,                                             технический паспорт",,,42.8892,74.6963,в пригороде,"ровный,                                             удобный въезд,                                             удобно под коммерцию",,,,,,,,,,,,
